{
  "city": "Ottawa, ON",
  "source": "kijiji scrape",
  "generated_at": "2026-06-13T14:59:39Z",
  "listings": [
    {
      "id": "kijiji-1734238961",
      "title": "1 bedroom high rise apartment",
      "address": "121 Parkdale Avenue, Ottawa, Ontario K1Y 4J2, Canada",
      "lat": 45.408452,
      "lon": -75.733453,
      "rent_cad": 1876,
      "bedrooms": 0,
      "source": "kijiji",
      "url": "https://www.kijiji.ca/v-apartments-condos/ottawa/1-bedroom-high-rise-apartment/1734238961",
      "bathrooms": 1.0
    },
    {
      "id": "kijiji-1730438894",
      "title": "2 Bedroom Apartment for Rent - 190 Lees Ave",
      "address": "190 Lees Avenue, Ottawa, Ontario K1S 5L5, Canada",
      "lat": 45.41503,
      "lon": -75.669926,
      "rent_cad": 2399,
      "bedrooms": 2,
      "source": "kijiji",
      "url": "https://www.kijiji.ca/v-apartments-condos/ottawa/2-bedroom-apartment-for-rent-190-lees-ave/1730438894",
      "bathrooms": 1.5
    },
    {
      "id": "kijiji-1726183948",
      "title": "Aspen Tower Apartments - 2 bedrooms Apartment for Rent",
      "address": "2935 Richmond Road, Ottawa, Ontario K2B 8C9, Canada",
      "lat": 45.353939,
      "lon": -75.798762,
      "rent_cad": 2195,
      "bedrooms": 0,
      "source": "kijiji",
      "url": "https://www.kijiji.ca/v-apartments-condos/ottawa/aspen-tower-apartments-2-bedrooms-apartment-for-rent/1726183948",
      "bathrooms": 1.0
    },
    {
      "id": "kijiji-1736739467",
      "title": "2 Bedroom Apartment for Rent - 2880 Carling Avenue",
      "address": "2880 Carling Avenue, Ottawa, Ontario K2B 7Z1, Canada",
      "lat": 45.357309,
      "lon": -75.798915,
      "rent_cad": 2127,
      "bedrooms": 2,
      "source": "kijiji",
      "url": "https://www.kijiji.ca/v-apartments-condos/ottawa/2-bedroom-apartment-for-rent-2880-carling-avenue/1736739467",
      "bathrooms": 1.0
    },
    {
      "id": "kijiji-1733752373",
      "title": "Tenth Line - Two Bedroom Two Bathroom Apartment for Rent",
      "address": "2190 Tenth Line Road, Orléans, Ontario K4A 5R4, Canada",
      "lat": 45.454412,
      "lon": -75.484994,
      "rent_cad": 2475,
      "bedrooms": 2,
      "source": "kijiji",
      "url": "https://www.kijiji.ca/v-apartments-condos/ottawa/tenth-line-two-bedroom-two-bathroom-apartment-for-rent/1733752373",
      "bathrooms": 2.0
    },
    {
      "id": "kijiji-1726171544",
      "title": "Aspen Tower Apartments - 1 bedroom Apartment for Rent",
      "address": "2935 Richmond Road, Ottawa, Ontario K2B 8C9, Canada",
      "lat": 45.353939,
      "lon": -75.798762,
      "rent_cad": 1795,
      "bedrooms": 0,
      "source": "kijiji",
      "url": "https://www.kijiji.ca/v-apartments-condos/ottawa/aspen-tower-apartments-1-bedroom-apartment-for-rent/1726171544",
      "bathrooms": 1.0
    },
    {
      "id": "kijiji-1732379662",
      "title": "1-Bed | Little Italy | All Utilities Included | Move in June",
      "address": "285 Loretta Avenue South, Ottawa, Ontario K1S 4P9, Canada",
      "lat": 45.398578,
      "lon": -75.712439,
      "rent_cad": 1750,
      "bedrooms": 1,
      "source": "kijiji",
      "url": "https://www.kijiji.ca/v-apartments-condos/ottawa/1-bed-little-italy-all-utilities-included-move-in-june/1732379662",
      "bathrooms": 1.0
    },
    {
      "id": "kijiji-1736729875",
      "title": "3 bedroom townhouse for Rent near Britannia Beach!",
      "address": "1300 Richmond Road, Ottawa, Ontario K2B 8L2, Canada",
      "lat": 45.367672,
      "lon": -75.784826,
      "rent_cad": 2980,
      "bedrooms": 3,
      "source": "kijiji",
      "url": "https://www.kijiji.ca/v-apartments-condos/ottawa/3-bedroom-townhouse-for-rent-near-britannia-beach/1736729875",
      "bathrooms": 1.0
    },
    {
      "id": "kijiji-1736714377",
      "title": "Apartment for Rent: 1 Bedroom A - Parkway Towers",
      "address": "1071 Ambleside Drive, Ottawa, Ontario K2B 5E7, Canada",
      "lat": 45.374297,
      "lon": -75.780364,
      "rent_cad": 1659,
      "bedrooms": 1,
      "source": "kijiji",
      "url": "https://www.kijiji.ca/v-apartments-condos/ottawa/apartment-for-rent:-1-bedroom-a-parkway-towers/1736714377",
      "bathrooms": 1.0
    },
    {
      "id": "kijiji-1714341321",
      "title": "Beautiful 1 Bedroom $1685, 1 MONTH FREE #1909 Available JULY 1st",
      "address": "160 Chapel Street, Ottawa, Ontario K1N 8P5, Canada",
      "lat": 45.431009,
      "lon": -75.681628,
      "rent_cad": 1685,
      "bedrooms": 1,
      "source": "kijiji",
      "url": "https://www.kijiji.ca/v-apartments-condos/ottawa/beautiful-1-bedroom-1685-1-month-free-1909-available-july-1st/1714341321",
      "bathrooms": 1.0
    },
    {
      "id": "kijiji-1737020497",
      "title": "New 3BR — Truly All-Inclusive w/ Parking, Snow & Lawn Care",
      "address": "1350 Summerville Avenue, Ottawa, Ontario K1Z 8H1, Canada",
      "lat": 45.375703,
      "lon": -75.731534,
      "rent_cad": 2950,
      "bedrooms": 3,
      "source": "kijiji",
      "url": "https://www.kijiji.ca/v-apartments-condos/ottawa/new-3br-truly-all-inclusive-w-parking-snow-lawn-care/1737020497",
      "bathrooms": 1.0
    },
    {
      "id": "kijiji-1737020889",
      "title": "Renovated 3BR Lower Unit — Kitchen Island, Truly All-Inclusive",
      "address": "1350 Summerville Avenue, Ottawa, Ontario K1Z 8H1, Canada",
      "lat": 45.375703,
      "lon": -75.731534,
      "rent_cad": 2700,
      "bedrooms": 3,
      "source": "kijiji",
      "url": "https://www.kijiji.ca/v-apartments-condos/ottawa/renovated-3br-lower-unit-kitchen-island-truly-all-inclusive/1737020889",
      "bathrooms": 1.0
    },
    {
      "id": "kijiji-1738284311",
      "title": "Renovated Downtown 1 Bedroom Apt for June/July $1649.00+ Hydro",
      "address": "475 Elgin Street, Ottawa, Ontario K2P 2E6, Canada",
      "lat": 45.412785,
      "lon": -75.685113,
      "rent_cad": 1649,
      "bedrooms": 1,
      "source": "kijiji",
      "url": "https://www.kijiji.ca/v-apartments-condos/ottawa/renovated-downtown-1-bedroom-apt-for-june-july-1649-00-hydro/1738284311",
      "bathrooms": 1.0
    },
    {
      "id": "kijiji-1738285860",
      "title": "June 1st 3 Blocks to Ottawa University",
      "address": "28 Sweetland Avenue, Ottawa, Ontario K1N 7T6, Canada",
      "lat": 45.425773,
      "lon": -75.679882,
      "rent_cad": 2650,
      "bedrooms": 3,
      "source": "kijiji",
      "url": "https://www.kijiji.ca/v-apartments-condos/ottawa/june-1st-3-blocks-to-ottawa-university/1738285860",
      "bathrooms": 1.0
    },
    {
      "id": "kijiji-1703920709",
      "title": "WE ARE OPEN | New 55 + Lifestyle Apartments: 2-Bedroom",
      "address": "1707 Carling Avenue, Ottawa, Ontario K2A 1C8, Canada",
      "lat": 45.37869,
      "lon": -75.752005,
      "rent_cad": 2200,
      "bedrooms": 0,
      "source": "kijiji",
      "url": "https://www.kijiji.ca/v-apartments-condos/ottawa/we-are-open-new-55-lifestyle-apartments:-2-bedroom/1703920709",
      "bathrooms": 2.0
    },
    {
      "id": "kijiji-1703920708",
      "title": "WE ARE OPEN | Aged 55 + Senior Lifestyle: 1 Bedroom Apartment",
      "address": "1707 Carling Avenue, Ottawa, Ontario K2A 1C8, Canada",
      "lat": 45.37869,
      "lon": -75.752005,
      "rent_cad": 1825,
      "bedrooms": 0,
      "source": "kijiji",
      "url": "https://www.kijiji.ca/v-apartments-condos/ottawa/we-are-open-aged-55-senior-lifestyle:-1-bedroom-apartment/1703920708",
      "bathrooms": 1.0
    },
    {
      "id": "kijiji-1703906869",
      "title": "NOW OPEN | New 55+ Lifestyle Rentals: Studio",
      "address": "1707 Carling Avenue, Ottawa, Ontario K2A 1C8, Canada",
      "lat": 45.37869,
      "lon": -75.752005,
      "rent_cad": 1600,
      "bedrooms": 0,
      "source": "kijiji",
      "url": "https://www.kijiji.ca/v-apartments-condos/ottawa/now-open-new-55-lifestyle-rentals:-studio/1703906869",
      "bathrooms": 1.0
    },
    {
      "id": "kijiji-1738284200",
      "title": "NEW 2 BDR- GUIGUES AVENUE- OTTAWA UNIVERSITY- JULY 1ST- MARKET",
      "address": "248 Guigues Avenue, Ottawa, Ontario K1N 5J2, Canada",
      "lat": 45.432917,
      "lon": -75.689741,
      "rent_cad": 1695,
      "bedrooms": 2,
      "source": "kijiji",
      "url": "https://www.kijiji.ca/v-apartments-condos/ottawa/new-2-bdr-guigues-avenue-ottawa-university-july-1st-market/1738284200",
      "bathrooms": 1.0
    },
    {
      "id": "kijiji-1669182401",
      "title": "Modern 1 Bedroom Rental in Centertown",
      "address": "287 Lisgar Street, Ottawa, Ontario K2P 1K8, Canada",
      "lat": 45.417479,
      "lon": -75.696241,
      "rent_cad": 1900,
      "bedrooms": 0,
      "source": "kijiji",
      "url": "https://www.kijiji.ca/v-apartments-condos/ottawa/modern-1-bedroom-rental-in-centertown/1669182401",
      "bathrooms": 1.0
    },
    {
      "id": "kijiji-1735339700",
      "title": "Mata Living: 2 Months Free on Select Units | New Studios",
      "address": "300 Tremblay Road, Ottawa, Ontario K1G 0A4, Canada",
      "lat": 45.418413,
      "lon": -75.647293,
      "rent_cad": 1500,
      "bedrooms": 0,
      "source": "kijiji",
      "url": "https://www.kijiji.ca/v-apartments-condos/ottawa/mata-living:-2-months-free-on-select-units-new-studios/1735339700",
      "bathrooms": 1.0
    },
    {
      "id": "kijiji-1651329986",
      "title": "2 Bedroom 2 Bath in the Heart of Centretown, Ottawa",
      "address": "383 Albert Street, Ottawa, Ontario K1R 5B2, Canada",
      "lat": 45.41798,
      "lon": -75.705415,
      "rent_cad": 2600,
      "bedrooms": 2,
      "source": "kijiji",
      "url": "https://www.kijiji.ca/v-apartments-condos/ottawa/2-bedroom-2-bath-in-the-heart-of-centretown-ottawa/1651329986",
      "bathrooms": 2.0
    },
    {
      "id": "kijiji-1735339704",
      "title": "Mata Living: Spacious 1-Bedrooms | 2 Months Free on Select Units",
      "address": "300 Tremblay Road, Ottawa, Ontario K1G 0A4, Canada",
      "lat": 45.418413,
      "lon": -75.647293,
      "rent_cad": 2070,
      "bedrooms": 0,
      "source": "kijiji",
      "url": "https://www.kijiji.ca/v-apartments-condos/ottawa/mata-living:-spacious-1-bedrooms-2-months-free-on-select-units/1735339704",
      "bathrooms": 1.0
    },
    {
      "id": "kijiji-1738326009",
      "title": "2 bedroom old Ottawa south apartment for rent",
      "address": "69 Riverdale Avenue, Ottawa, Ontario K1S 1R1, Canada",
      "lat": 45.401312,
      "lon": -75.675694,
      "rent_cad": 2200,
      "bedrooms": 2,
      "source": "kijiji",
      "url": "https://www.kijiji.ca/v-apartments-condos/ottawa/2-bedroom-old-ottawa-south-apartment-for-rent/1738326009",
      "bathrooms": 1.0
    },
    {
      "id": "kijiji-1738321685",
      "title": "3 bedroom apartment",
      "address": "634 MacLaren Street, Ottawa, Ontario K1R 5L2, Canada",
      "lat": 45.411314,
      "lon": -75.703598,
      "rent_cad": 2285,
      "bedrooms": 3,
      "source": "kijiji",
      "url": "https://www.kijiji.ca/v-apartments-condos/ottawa/3-bedroom-apartment/1738321685",
      "bathrooms": 1.0
    },
    {
      "id": "kijiji-1736113867",
      "title": "1 Bedroom Rentals in Ottawa's East-End",
      "address": "840 Montréal Road, Ottawa, Ontario K1K 4W3, Canada",
      "lat": 45.44529,
      "lon": -75.632283,
      "rent_cad": 1695,
      "bedrooms": 1,
      "source": "kijiji",
      "url": "https://www.kijiji.ca/v-apartments-condos/ottawa/1-bedroom-rentals-in-ottawas-east-end/1736113867",
      "bathrooms": 1.0
    },
    {
      "id": "kijiji-1736113865",
      "title": "Beautiful 2 Bedroom Apartment",
      "address": "840 Montréal Road, Ottawa, Ontario K1K 4W3, Canada",
      "lat": 45.44529,
      "lon": -75.632283,
      "rent_cad": 1975,
      "bedrooms": 2,
      "source": "kijiji",
      "url": "https://www.kijiji.ca/v-apartments-condos/ottawa/beautiful-2-bedroom-apartment/1736113865",
      "bathrooms": 1.0
    },
    {
      "id": "kijiji-1728565294",
      "title": "Studio Apartment in Centretown | 98 Walk Score!",
      "address": "287 Lisgar Street, Ottawa, Ontario K2P 1K8, Canada",
      "lat": 45.417479,
      "lon": -75.696241,
      "rent_cad": 1700,
      "bedrooms": 0,
      "source": "kijiji",
      "url": "https://www.kijiji.ca/v-apartments-condos/ottawa/studio-apartment-in-centretown-98-walk-score/1728565294",
      "bathrooms": 1.0
    },
    {
      "id": "kijiji-1738319336",
      "title": "Tenth Line - One Bedroom One Bathroom Apartment for Rent",
      "address": "2190 Tenth Line Road, Orléans, Ontario K4A 5R4, Canada",
      "lat": 45.454412,
      "lon": -75.484994,
      "rent_cad": 2125,
      "bedrooms": 2,
      "source": "kijiji",
      "url": "https://www.kijiji.ca/v-apartments-condos/ottawa/tenth-line-one-bedroom-one-bathroom-apartment-for-rent/1738319336",
      "bathrooms": 1.0
    },
    {
      "id": "kijiji-1738320021",
      "title": "July 1 --2 BD unit 335 Nepean St $2250.00 plus hydro",
      "address": "335 Nepean Street, Ottawa, Ontario K1R 5G4, Canada",
      "lat": 45.415566,
      "lon": -75.70285,
      "rent_cad": 2250,
      "bedrooms": 2,
      "source": "kijiji",
      "url": "https://www.kijiji.ca/v-apartments-condos/ottawa/july-1-2-bd-unit-335-nepean-st-2250-00-plus-hydro/1738320021",
      "bathrooms": 1.0
    },
    {
      "id": "kijiji-1738318597",
      "title": "Beautiful Downtown Condo for rent",
      "address": "138 Somerset Street West, Ottawa, Ontario K2P 0A3, Canada",
      "lat": 45.418011,
      "lon": -75.689295,
      "rent_cad": 1975,
      "bedrooms": 1,
      "source": "kijiji",
      "url": "https://www.kijiji.ca/v-apartments-condos/ottawa/beautiful-downtown-condo-for-rent/1738318597",
      "bathrooms": 1.0
    },
    {
      "id": "kijiji-1733944745",
      "title": "July 2026 - 1 bedroom apartment",
      "address": "141 Cooper Street, Ottawa, Ontario K2P 0E8, Canada",
      "lat": 45.419247,
      "lon": -75.68983,
      "rent_cad": 1599,
      "bedrooms": 1,
      "source": "kijiji",
      "url": "https://www.kijiji.ca/v-apartments-condos/ottawa/july-2026-1-bedroom-apartment/1733944745",
      "bathrooms": 1.0
    },
    {
      "id": "kijiji-1737120415",
      "title": "July 1st - Studio/Bachelor Apartment Available",
      "address": "141 Cooper Street, Ottawa, Ontario K2P 0E8, Canada",
      "lat": 45.419247,
      "lon": -75.68983,
      "rent_cad": 1349,
      "bedrooms": 0,
      "source": "kijiji",
      "url": "https://www.kijiji.ca/v-apartments-condos/ottawa/july-1st-studio-bachelor-apartment-available/1737120415",
      "bathrooms": 1.0
    },
    {
      "id": "kijiji-1732672786",
      "title": "1BD apt Available @ $1699 - July 1st 2026 - The Carson",
      "address": "141 Cooper Street, Ottawa, Ontario K2P 0E8, Canada",
      "lat": 45.419247,
      "lon": -75.68983,
      "rent_cad": 1649,
      "bedrooms": 1,
      "source": "kijiji",
      "url": "https://www.kijiji.ca/v-apartments-condos/ottawa/1bd-apt-available-1699-july-1st-2026-the-carson/1732672786",
      "bathrooms": 1.0
    },
    {
      "id": "kijiji-1737112813",
      "title": "Station27 - 1 Bedroom available",
      "address": "1155 Joseph Cyr Street, Gloucester, Ontario K1J 7T4, Canada",
      "lat": 45.423939,
      "lon": -75.634419,
      "rent_cad": 1785,
      "bedrooms": 1,
      "source": "kijiji",
      "url": "https://www.kijiji.ca/v-apartments-condos/ottawa/station27-1-bedroom-available/1737112813",
      "bathrooms": 1.0
    },
    {
      "id": "kijiji-1735339690",
      "title": "Ori Apartment: 2-Bedrooms Starting at $2420 | Brand New Suites",
      "address": "1188 Cummings Avenue, Gloucester, Ontario K1J 7R8, Canada",
      "lat": 45.426755,
      "lon": -75.632456,
      "rent_cad": 2420,
      "bedrooms": 0,
      "source": "kijiji",
      "url": "https://www.kijiji.ca/v-apartments-condos/ottawa/ori-apartment:-2-bedrooms-starting-at-2420-brand-new-suites/1735339690",
      "bathrooms": 1.0
    },
    {
      "id": "kijiji-1737958571",
      "title": "Studio Apartment",
      "address": "331 Cooper Street, Ottawa, Ontario K2P 0G5, Canada",
      "lat": 45.41723,
      "lon": -75.694639,
      "rent_cad": 1700,
      "bedrooms": 0,
      "source": "kijiji",
      "url": "https://www.kijiji.ca/v-apartments-condos/ottawa/studio-apartment/1737958571",
      "bathrooms": 1.0
    },
    {
      "id": "kijiji-1735274648",
      "title": "2 Bedrooms House for Rent - 5-80 Weeping Willow Lane",
      "address": "80 Weeping Willow Lane, Kanata, Ontario K2K 1E4, Canada",
      "lat": 45.332225,
      "lon": -75.905381,
      "rent_cad": 2399,
      "bedrooms": 3,
      "source": "kijiji",
      "url": "https://www.kijiji.ca/v-apartments-condos/ottawa/2-bedrooms-house-for-rent-5-80-weeping-willow-lane/1735274648",
      "bathrooms": 1.0
    },
    {
      "id": "kijiji-1534834575",
      "title": "MUST SEE! 1 BED APARTMENT FOR RENT NEAR BRITANNIA BEACH!",
      "address": "1300 Richmond Road, Ottawa, Ontario K2B 8L2, Canada",
      "lat": 45.367672,
      "lon": -75.784826,
      "rent_cad": 1600,
      "bedrooms": 1,
      "source": "kijiji",
      "url": "https://www.kijiji.ca/v-apartments-condos/ottawa/must-see-1-bed-apartment-for-rent-near-britannia-beach/1534834575",
      "bathrooms": 1.0
    },
    {
      "id": "kijiji-1735339699",
      "title": "Mata Living: Modern 1-Bedroom Apartments Starting at $2070",
      "address": "300 Tremblay Road, Ottawa, Ontario K1G 0A4, Canada",
      "lat": 45.418413,
      "lon": -75.647293,
      "rent_cad": 2070,
      "bedrooms": 0,
      "source": "kijiji",
      "url": "https://www.kijiji.ca/v-apartments-condos/ottawa/mata-living:-modern-1-bedroom-apartments-starting-at-2070/1735339699",
      "bathrooms": 1.0
    },
    {
      "id": "kijiji-1735339702",
      "title": "Mata Living: Spacious 1-Bedrooms | 2 Months Free on Select Units",
      "address": "300 Tremblay Road, Ottawa, Ontario K1G 0A4, Canada",
      "lat": 45.418413,
      "lon": -75.647293,
      "rent_cad": 2070,
      "bedrooms": 0,
      "source": "kijiji",
      "url": "https://www.kijiji.ca/v-apartments-condos/ottawa/mata-living:-spacious-1-bedrooms-2-months-free-on-select-units/1735339702",
      "bathrooms": 1.0
    },
    {
      "id": "kijiji-1735339696",
      "title": "Mata Living: 2 Months Free on Select Units!",
      "address": "300 Tremblay Road, Ottawa, Ontario K1G 0A4, Canada",
      "lat": 45.418413,
      "lon": -75.647293,
      "rent_cad": 2070,
      "bedrooms": 0,
      "source": "kijiji",
      "url": "https://www.kijiji.ca/v-apartments-condos/ottawa/mata-living:-2-months-free-on-select-units/1735339696",
      "bathrooms": 1.0
    },
    {
      "id": "kijiji-1735339703",
      "title": "Mata Living: Spacious 1-Bedrooms | 2 Months Free on Select Units",
      "address": "300 Tremblay Road, Ottawa, Ontario K1G 0A4, Canada",
      "lat": 45.418413,
      "lon": -75.647293,
      "rent_cad": 2070,
      "bedrooms": 0,
      "source": "kijiji",
      "url": "https://www.kijiji.ca/v-apartments-condos/ottawa/mata-living:-spacious-1-bedrooms-2-months-free-on-select-units/1735339703",
      "bathrooms": 1.0
    },
    {
      "id": "kijiji-1735339695",
      "title": "Mata Living: Modern Studios from $1535 | East Ottawa Living",
      "address": "300 Tremblay Road, Ottawa, Ontario K1G 0A4, Canada",
      "lat": 45.418413,
      "lon": -75.647293,
      "rent_cad": 1500,
      "bedrooms": 0,
      "source": "kijiji",
      "url": "https://www.kijiji.ca/v-apartments-condos/ottawa/mata-living:-modern-studios-from-1535-east-ottawa-living/1735339695",
      "bathrooms": 1.0
    },
    {
      "id": "kijiji-1735339697",
      "title": "Mata Living: 2 Months Free on select units | Modern Studios",
      "address": "300 Tremblay Road, Ottawa, Ontario K1G 0A4, Canada",
      "lat": 45.418413,
      "lon": -75.647293,
      "rent_cad": 1500,
      "bedrooms": 0,
      "source": "kijiji",
      "url": "https://www.kijiji.ca/v-apartments-condos/ottawa/mata-living:-2-months-free-on-select-units-modern-studios/1735339697",
      "bathrooms": 1.0
    },
    {
      "id": "kijiji-1735339705",
      "title": "Mata Living: Modern Studios from $1535 | East Ottawa Living",
      "address": "300 Tremblay Road, Ottawa, Ontario K1G 0A4, Canada",
      "lat": 45.418413,
      "lon": -75.647293,
      "rent_cad": 1535,
      "bedrooms": 0,
      "source": "kijiji",
      "url": "https://www.kijiji.ca/v-apartments-condos/ottawa/mata-living:-modern-studios-from-1535-east-ottawa-living/1735339705",
      "bathrooms": 1.0
    },
    {
      "id": "kijiji-1735339691",
      "title": "Ori Apartment: Spacious 2-Beds Starting at $2420",
      "address": "1188 Cummings Avenue, Gloucester, Ontario K1J 7R8, Canada",
      "lat": 45.426755,
      "lon": -75.632456,
      "rent_cad": 2420,
      "bedrooms": 0,
      "source": "kijiji",
      "url": "https://www.kijiji.ca/v-apartments-condos/ottawa/ori-apartment:-spacious-2-beds-starting-at-2420/1735339691",
      "bathrooms": 1.0
    },
    {
      "id": "kijiji-1735339692",
      "title": "Ori Apartments: Brand New 1-Beds - 3 Months Free on select units",
      "address": "1188 Cummings Avenue, Gloucester, Ontario K1J 7R8, Canada",
      "lat": 45.426755,
      "lon": -75.632456,
      "rent_cad": 1985,
      "bedrooms": 0,
      "source": "kijiji",
      "url": "https://www.kijiji.ca/v-apartments-condos/ottawa/ori-apartments:-brand-new-1-beds-3-months-free-on-select-units/1735339692",
      "bathrooms": 1.0
    },
    {
      "id": "kijiji-1735339693",
      "title": "Mata Living: Studios Starting at $1535 | Brand New Building",
      "address": "300 Tremblay Road, Ottawa, Ontario K1G 0A4, Canada",
      "lat": 45.418413,
      "lon": -75.647293,
      "rent_cad": 1535,
      "bedrooms": 0,
      "source": "kijiji",
      "url": "https://www.kijiji.ca/v-apartments-condos/ottawa/mata-living:-studios-starting-at-1535-brand-new-building/1735339693",
      "bathrooms": 1.0
    },
    {
      "id": "kijiji-1735339687",
      "title": "Ori Apartments: Modern Studios Starting at $1535",
      "address": "1188 Cummings Avenue, Gloucester, Ontario K1J 7R8, Canada",
      "lat": 45.426755,
      "lon": -75.632456,
      "rent_cad": 1535,
      "bedrooms": 0,
      "source": "kijiji",
      "url": "https://www.kijiji.ca/v-apartments-condos/ottawa/ori-apartments:-modern-studios-starting-at-1535/1735339687",
      "bathrooms": 1.0
    },
    {
      "id": "kijiji-1735339688",
      "title": "Ori Apartments:3 Months Free on Select Units",
      "address": "1188 Cummings Avenue, Gloucester, Ontario K1J 7R8, Canada",
      "lat": 45.426755,
      "lon": -75.632456,
      "rent_cad": 1900,
      "bedrooms": 0,
      "source": "kijiji",
      "url": "https://www.kijiji.ca/v-apartments-condos/ottawa/ori-apartments:3-months-free-on-select-units/1735339688",
      "bathrooms": 1.0
    },
    {
      "id": "kijiji-1735339689",
      "title": "Ori Apartment: Spacious 2 Bedroom - 3 Months Free on Select Unit",
      "address": "1188 Cummings Avenue, Gloucester, Ontario K1J 7R8, Canada",
      "lat": 45.426755,
      "lon": -75.632456,
      "rent_cad": 2420,
      "bedrooms": 0,
      "source": "kijiji",
      "url": "https://www.kijiji.ca/v-apartments-condos/ottawa/ori-apartment:-spacious-2-bedroom-3-months-free-on-select-unit/1735339689",
      "bathrooms": 1.0
    },
    {
      "id": "kijiji-1735332143",
      "title": "Ori Apartments: 3 Months Free on Select Units",
      "address": "1188 Cummings Avenue, Gloucester, Ontario K1J 7R8, Canada",
      "lat": 45.426755,
      "lon": -75.632456,
      "rent_cad": 1535,
      "bedrooms": 0,
      "source": "kijiji",
      "url": "https://www.kijiji.ca/v-apartments-condos/ottawa/ori-apartments:-3-months-free-on-select-units/1735332143",
      "bathrooms": 1.0
    },
    {
      "id": "kijiji-1735332144",
      "title": "Ori Apartments: Studios from $1535 | Brand New Suites",
      "address": "1188 Cummings Avenue, Gloucester, Ontario K1J 7R8, Canada",
      "lat": 45.426755,
      "lon": -75.632456,
      "rent_cad": 1535,
      "bedrooms": 0,
      "source": "kijiji",
      "url": "https://www.kijiji.ca/v-apartments-condos/ottawa/ori-apartments:-studios-from-1535-brand-new-suites/1735332144",
      "bathrooms": 1.0
    },
    {
      "id": "kijiji-1735332142",
      "title": "Ori Apartments: $1535 Studios",
      "address": "1188 Cummings Avenue, Gloucester, Ontario K1J 7R8, Canada",
      "lat": 45.426755,
      "lon": -75.632456,
      "rent_cad": 1535,
      "bedrooms": 0,
      "source": "kijiji",
      "url": "https://www.kijiji.ca/v-apartments-condos/ottawa/ori-apartments:-1535-studios/1735332142",
      "bathrooms": 1.0
    },
    {
      "id": "kijiji-1735332146",
      "title": "Ori Apartment: Studios starting at 1535!",
      "address": "1188 Cummings Avenue, Gloucester, Ontario K1J 7R8, Canada",
      "lat": 45.426755,
      "lon": -75.632456,
      "rent_cad": 1535,
      "bedrooms": 0,
      "source": "kijiji",
      "url": "https://www.kijiji.ca/v-apartments-condos/ottawa/ori-apartment:-studios-starting-at-1535/1735332146",
      "bathrooms": 1.0
    },
    {
      "id": "kijiji-1736893452",
      "title": "1 Bedroom Apartment for Rent - 1971 ST. LAURENT BLVD",
      "address": "1971 St-Laurent Boulevard, Ottawa, Ontario K1G 3P8, Canada",
      "lat": 45.398109,
      "lon": -75.621511,
      "rent_cad": 1615,
      "bedrooms": 1,
      "source": "kijiji",
      "url": "https://www.kijiji.ca/v-apartments-condos/ottawa/1-bedroom-apartment-for-rent-1971-st-laurent-blvd/1736893452",
      "bathrooms": 1.0
    },
    {
      "id": "kijiji-1736893455",
      "title": "1 Bedroom Apartment for Rent - 3528-3532, 3550 & 3590 Downpatric",
      "address": "3590 Downpatrick Road, Gloucester, Ontario K1V 8T4, Canada",
      "lat": 45.34483,
      "lon": -75.662428,
      "rent_cad": 1674,
      "bedrooms": 1,
      "source": "kijiji",
      "url": "https://www.kijiji.ca/v-apartments-condos/ottawa/1-bedroom-apartment-for-rent-3528-3532-3550-3590-downpatric/1736893455",
      "bathrooms": 1.0
    },
    {
      "id": "kijiji-1735323356",
      "title": "1 Bedroom + Den available at 525, 545 & 555 Recolte",
      "address": "555 Récolte Private, Orléans, Ontario K1E 0B4, Canada",
      "lat": 45.483691,
      "lon": -75.504558,
      "rent_cad": 2060,
      "bedrooms": 1,
      "source": "kijiji",
      "url": "https://www.kijiji.ca/v-apartments-condos/ottawa/1-bedroom-den-available-at-525-545-555-recolte/1735323356",
      "bathrooms": 1.0
    },
    {
      "id": "kijiji-1735323360",
      "title": "1 Bedroom available at 518 Rochester Street, Ottawa",
      "address": "518 Rochester Street, Ottawa, Ontario K1S 5W4, Canada",
      "lat": 45.400092,
      "lon": -75.706919,
      "rent_cad": 2285,
      "bedrooms": 1,
      "source": "kijiji",
      "url": "https://www.kijiji.ca/v-apartments-condos/ottawa/1-bedroom-available-at-518-rochester-street-ottawa/1735323360",
      "bathrooms": 1.0
    },
    {
      "id": "kijiji-1735323357",
      "title": "2 Bedroom + Den available at 525, 545 & 555 Recolte",
      "address": "555 Récolte Private, Orléans, Ontario K1E 0B4, Canada",
      "lat": 45.483691,
      "lon": -75.504558,
      "rent_cad": 2500,
      "bedrooms": 2,
      "source": "kijiji",
      "url": "https://www.kijiji.ca/v-apartments-condos/ottawa/2-bedroom-den-available-at-525-545-555-recolte/1735323357",
      "bathrooms": 1.0
    },
    {
      "id": "kijiji-1736870746",
      "title": "2 Bedroom Apartment for Rent - 3528-3532, 3550 & 3590 Downpatric",
      "address": "3590 Downpatrick Road, Gloucester, Ontario K1V 8T4, Canada",
      "lat": 45.34483,
      "lon": -75.662428,
      "rent_cad": 2131,
      "bedrooms": 2,
      "source": "kijiji",
      "url": "https://www.kijiji.ca/v-apartments-condos/ottawa/2-bedroom-apartment-for-rent-3528-3532-3550-3590-downpatric/1736870746",
      "bathrooms": 1.0
    },
    {
      "id": "kijiji-1736870679",
      "title": "Apartment for Rent: 1 Bedroom - The Oaks Apartments",
      "address": "2995 Albion Road North, Ottawa, Ontario K1V 8Z2, Canada",
      "lat": 45.371126,
      "lon": -75.6525,
      "rent_cad": 1489,
      "bedrooms": 1,
      "source": "kijiji",
      "url": "https://www.kijiji.ca/v-apartments-condos/ottawa/apartment-for-rent:-1-bedroom-the-oaks-apartments/1736870679",
      "bathrooms": 1.0
    },
    {
      "id": "kijiji-1734693982",
      "title": "3 Bedrooms House for Rent - 5-80 Weeping Willow Lane",
      "address": "80 Weeping Willow Lane, Kanata, Ontario K2K 1E4, Canada",
      "lat": 45.332225,
      "lon": -75.905381,
      "rent_cad": 2599,
      "bedrooms": 3,
      "source": "kijiji",
      "url": "https://www.kijiji.ca/v-apartments-condos/ottawa/3-bedrooms-house-for-rent-5-80-weeping-willow-lane/1734693982",
      "bathrooms": 2.0
    },
    {
      "id": "kijiji-1701102424",
      "title": "2 BEDROOM APARTMENT IN OTTAWA'S EAST END!",
      "address": "981 Gulf Place, Ottawa, Ontario K1K 2E8, Canada",
      "lat": 45.446675,
      "lon": -75.626581,
      "rent_cad": 1895,
      "bedrooms": 2,
      "source": "kijiji",
      "url": "https://www.kijiji.ca/v-apartments-condos/ottawa/2-bedroom-apartment-in-ottawas-east-end/1701102424",
      "bathrooms": 1.0
    },
    {
      "id": "kijiji-1736391346",
      "title": "Apartment for Rent at 360 Laurier, 360 Laurier West",
      "address": "360 Laurier Avenue West, Ottawa, Ontario K1P 1C8, Canada",
      "lat": 45.417708,
      "lon": -75.700437,
      "rent_cad": 1899,
      "bedrooms": 0,
      "source": "kijiji",
      "url": "https://www.kijiji.ca/v-apartments-condos/ottawa/apartment-for-rent-at-360-laurier-360-laurier-west/1736391346",
      "bathrooms": 1.0
    },
    {
      "id": "kijiji-1737070940",
      "title": "GRAND OPENING | The Vantage - 200 Elgin St | Downtown Ottawa",
      "address": "200 Elgin Street, Ottawa, Ontario K2P 1L5, Canada",
      "lat": 45.419188,
      "lon": -75.692114,
      "rent_cad": 2650,
      "bedrooms": 0,
      "source": "kijiji",
      "url": "https://www.kijiji.ca/v-apartments-condos/ottawa/grand-opening-the-vantage-200-elgin-st-downtown-ottawa/1737070940",
      "bathrooms": 1.0
    },
    {
      "id": "kijiji-1737527683",
      "title": "House for Rent in the Best location in Ottawa",
      "address": "2121 Prince Charles Road, Ottawa, Ontario K2A 3L2, Canada",
      "lat": 45.376576,
      "lon": -75.771265,
      "rent_cad": 2995,
      "bedrooms": 3,
      "source": "kijiji",
      "url": "https://www.kijiji.ca/v-apartments-condos/ottawa/house-for-rent-in-the-best-location-in-ottawa/1737527683",
      "bathrooms": 1.0
    },
    {
      "id": "kijiji-1737052000",
      "title": "330 Metcalfe: Apartment for rent in 330 Metcalfe",
      "address": "330 Metcalfe Street, Ottawa, Ontario K2P 1S4, Canada",
      "lat": 45.414415,
      "lon": -75.690356,
      "rent_cad": 1699,
      "bedrooms": 0,
      "source": "kijiji",
      "url": "https://www.kijiji.ca/v-apartments-condos/ottawa/330-metcalfe:-apartment-for-rent-in-330-metcalfe/1737052000",
      "bathrooms": 1.0
    },
    {
      "id": "kijiji-1735716004",
      "title": "Recital I-III: Studio Apartment Available Near UOttawa Campus",
      "address": "19 Robinson Avenue, Ottawa, Ontario K1N 8N8, Canada",
      "lat": 45.418251,
      "lon": -75.667474,
      "rent_cad": 1580,
      "bedrooms": 0,
      "source": "kijiji",
      "url": "https://www.kijiji.ca/v-apartments-condos/ottawa/recital-i-iii:-studio-apartment-available-near-uottawa-campus/1735716004",
      "bathrooms": 1.0
    },
    {
      "id": "kijiji-1737280803",
      "title": "2 Bedroom Apartment | Downtown | Pet Friendly | Avail May!",
      "address": "170 Metcalfe Street, Ottawa, Ontario K2P 1P3, Canada",
      "lat": 45.41905,
      "lon": -75.694416,
      "rent_cad": 2500,
      "bedrooms": 2,
      "source": "kijiji",
      "url": "https://www.kijiji.ca/v-apartments-condos/ottawa/2-bedroom-apartment-downtown-pet-friendly-avail-may/1737280803",
      "bathrooms": 1.0
    },
    {
      "id": "kijiji-1739125066",
      "title": "New Luxury 1-Bedroom Condo",
      "address": "20 Daly Avenue, Ottawa, Ontario K1N 0C6, Canada",
      "lat": 45.425892,
      "lon": -75.688168,
      "rent_cad": 2450,
      "bedrooms": 1,
      "source": "kijiji",
      "url": "https://www.kijiji.ca/v-apartments-condos/ottawa/new-luxury-1-bedroom-condo/1739125066",
      "bathrooms": 1.0
    },
    {
      "id": "kijiji-1739123509",
      "title": "Cozy 2 bed apt walking to u of o all inclusive",
      "address": "970 Marguerite Avenue, Ottawa, Ontario K1K 3V1, Canada",
      "lat": 45.427348,
      "lon": -75.665981,
      "rent_cad": 1795,
      "bedrooms": 2,
      "source": "kijiji",
      "url": "https://www.kijiji.ca/v-apartments-condos/ottawa/cozy-2-bed-apt-walking-to-u-of-o-all-inclusive/1739123509",
      "bathrooms": 1.0
    },
    {
      "id": "kijiji-1737647896",
      "title": "1 Bedroom/Apartment/St-Laurent/For Rent/Ottawa",
      "address": "621 Québec Street, Ottawa, Ontario K1K 0Z4, Canada",
      "lat": 45.437442,
      "lon": -75.639326,
      "rent_cad": 1500,
      "bedrooms": 1,
      "source": "kijiji",
      "url": "https://www.kijiji.ca/v-apartments-condos/ottawa/1-bedroom-apartment-st-laurent-for-rent-ottawa/1737647896",
      "bathrooms": 1.0
    },
    {
      "id": "kijiji-1738217250",
      "title": "1 Bedroom/Apartment/For Rent/Centretown/Ottawa",
      "address": "501 Gilmour Street, Ottawa, Ontario K1R 5L3, Canada",
      "lat": 45.412935,
      "lon": -75.698587,
      "rent_cad": 1795,
      "bedrooms": 1,
      "source": "kijiji",
      "url": "https://www.kijiji.ca/v-apartments-condos/ottawa/1-bedroom-apartment-for-rent-centretown-ottawa/1738217250",
      "bathrooms": 1.0
    },
    {
      "id": "kijiji-1738370689",
      "title": "Two Bedroom Apartment / Rent / Downtown Ottawa / Many Ammenities",
      "address": "44 Nelson Street, Ottawa, Ontario K1N 7R2, Canada",
      "lat": 45.432389,
      "lon": -75.686691,
      "rent_cad": 1645,
      "bedrooms": 2,
      "source": "kijiji",
      "url": "https://www.kijiji.ca/v-apartments-condos/ottawa/two-bedroom-apartment-rent-downtown-ottawa-many-ammenities/1738370689",
      "bathrooms": 1.0
    },
    {
      "id": "kijiji-1737281013",
      "title": "Spacious 2 Bedroom Apartment/Duplex/Rent/Ottawa",
      "address": "2610 Draper Avenue, Ottawa, Ontario K2H 8X8, Canada",
      "lat": 45.341418,
      "lon": -75.789206,
      "rent_cad": 1945,
      "bedrooms": 2,
      "source": "kijiji",
      "url": "https://www.kijiji.ca/v-apartments-condos/ottawa/spacious-2-bedroom-apartment-duplex-rent-ottawa/1737281013",
      "bathrooms": 1.0
    },
    {
      "id": "kijiji-1737956788",
      "title": "4 Bedroom Single Family Home for Rent, Garage, Russell, Ottawa",
      "address": "321 Moonlight Drive, Russell, Ontario K4R 0L1, Canada",
      "lat": 45.269544,
      "lon": -75.361389,
      "rent_cad": 3295,
      "bedrooms": 4,
      "source": "kijiji",
      "url": "https://www.kijiji.ca/v-apartments-condos/ottawa/4-bedroom-single-family-home-for-rent-garage-russell-ottawa/1737956788",
      "bathrooms": 2.5
    },
    {
      "id": "kijiji-1686610966",
      "title": "New 2-Bedroom Apartments Available Now",
      "address": "265 Rideau Street, Ottawa, Ontario K1N 5Y2, Canada",
      "lat": 45.428545,
      "lon": -75.686675,
      "rent_cad": 2630,
      "bedrooms": 0,
      "source": "kijiji",
      "url": "https://www.kijiji.ca/v-apartments-condos/ottawa/new-2-bedroom-apartments-available-now/1686610966",
      "bathrooms": 2.0
    },
    {
      "id": "kijiji-1686594454",
      "title": "1-MONTH FREE! 1-Bedroom Apartments | Curated Just For You",
      "address": "265 Rideau Street, Ottawa, Ontario K1N 5Y2, Canada",
      "lat": 45.428545,
      "lon": -75.686675,
      "rent_cad": 1980,
      "bedrooms": 0,
      "source": "kijiji",
      "url": "https://www.kijiji.ca/v-apartments-condos/ottawa/1-month-free-1-bedroom-apartments-curated-just-for-you/1686594454",
      "bathrooms": 1.0
    },
    {
      "id": "kijiji-1673742507",
      "title": "Move-in Today! 1 Bedroom 1 Bath - Elevated Living @ Skye",
      "address": "383 Albert Street, Ottawa, Ontario K1R 5B2, Canada",
      "lat": 45.41798,
      "lon": -75.705415,
      "rent_cad": 1925,
      "bedrooms": 0,
      "source": "kijiji",
      "url": "https://www.kijiji.ca/v-apartments-condos/ottawa/move-in-today-1-bedroom-1-bath-elevated-living-skye/1673742507",
      "bathrooms": 1.0
    },
    {
      "id": "kijiji-1739116978",
      "title": "Apartment for Rent: 1 Bedroom - The Oaks Apartments",
      "address": "2995 Albion Road North, Ottawa, Ontario K1V 8Z2, Canada",
      "lat": 45.371126,
      "lon": -75.6525,
      "rent_cad": 1514,
      "bedrooms": 1,
      "source": "kijiji",
      "url": "https://www.kijiji.ca/v-apartments-condos/ottawa/apartment-for-rent:-1-bedroom-the-oaks-apartments/1739116978",
      "bathrooms": 1.0
    },
    {
      "id": "kijiji-1739110001",
      "title": "1435 & 1455 Morisset Avenue - Apartment for Rent",
      "address": "1455 Morisset Avenue, Ottawa, Ontario K1Z 8H2, Canada",
      "lat": 45.37467,
      "lon": -75.736341,
      "rent_cad": 1425,
      "bedrooms": 0,
      "source": "kijiji",
      "url": "https://www.kijiji.ca/v-apartments-condos/ottawa/1435-1455-morisset-avenue-apartment-for-rent/1739110001",
      "bathrooms": 1.0
    },
    {
      "id": "kijiji-1739116979",
      "title": "Apartment for Rent: 1 Bedroom - Brittany Drive Apartments",
      "address": "240 Brittany Drive, Ottawa, Ontario K1K 0R7, Canada",
      "lat": 45.445587,
      "lon": -75.648306,
      "rent_cad": 1584,
      "bedrooms": 1,
      "source": "kijiji",
      "url": "https://www.kijiji.ca/v-apartments-condos/ottawa/apartment-for-rent:-1-bedroom-brittany-drive-apartments/1739116979",
      "bathrooms": 1.0
    },
    {
      "id": "kijiji-1675192437",
      "title": "Modern 2 Bedroom Apartments",
      "address": "70 Gloucester Street, Ottawa, Ontario K2P 1N6, Canada",
      "lat": 45.419125,
      "lon": -75.694893,
      "rent_cad": 2480,
      "bedrooms": 2,
      "source": "kijiji",
      "url": "https://www.kijiji.ca/v-apartments-condos/ottawa/modern-2-bedroom-apartments/1675192437",
      "bathrooms": 2.0
    },
    {
      "id": "kijiji-1644357113",
      "title": "New Modern 1 Bedroom Apartments in Centertown",
      "address": "70 Gloucester Street, Ottawa, Ontario K2P 1N6, Canada",
      "lat": 45.419125,
      "lon": -75.694893,
      "rent_cad": 1980,
      "bedrooms": 1,
      "source": "kijiji",
      "url": "https://www.kijiji.ca/v-apartments-condos/ottawa/new-modern-1-bedroom-apartments-in-centertown/1644357113",
      "bathrooms": 1.0
    },
    {
      "id": "kijiji-1739116983",
      "title": "Apartment for Rent: Bachelor - Lincoln Park Tower",
      "address": "1330 Richmond Road, Ottawa, Ontario K2B 8J6, Canada",
      "lat": 45.366046,
      "lon": -75.784927,
      "rent_cad": 1284,
      "bedrooms": 0,
      "source": "kijiji",
      "url": "https://www.kijiji.ca/v-apartments-condos/ottawa/apartment-for-rent:-bachelor-lincoln-park-tower/1739116983",
      "bathrooms": 1.0
    },
    {
      "id": "kijiji-1739117674",
      "title": "CENTER TOWN ALL INCLUSIVE BATCHELOR FOR RENT",
      "address": "72 Cambridge Street North, Ottawa, Ontario K1R 7A7, Canada",
      "lat": 45.412638,
      "lon": -75.70777,
      "rent_cad": 1250,
      "bedrooms": 0,
      "source": "kijiji",
      "url": "https://www.kijiji.ca/v-apartments-condos/ottawa/center-town-all-inclusive-batchelor-for-rent/1739117674",
      "bathrooms": 1.0
    },
    {
      "id": "kijiji-1732988132",
      "title": "Studio, All-Inclusive Utilities, off Bank Street, Move In June 1",
      "address": "341 MacLaren Street, Ottawa, Ontario K2P 2E2, Canada",
      "lat": 45.415289,
      "lon": -75.695034,
      "rent_cad": 1499,
      "bedrooms": 0,
      "source": "kijiji",
      "url": "https://www.kijiji.ca/v-apartments-condos/ottawa/studio-all-inclusive-utilities-off-bank-street-move-in-june-1/1732988132",
      "bathrooms": 1.0
    },
    {
      "id": "kijiji-1737852336",
      "title": "1 Bed 1 Bath | June 1st | Golden Triangle |steps to Elgin Street",
      "address": "169 Lisgar Street, Ottawa, Ontario K2P 0C3, Canada",
      "lat": 45.418813,
      "lon": -75.692128,
      "rent_cad": 1750,
      "bedrooms": 1,
      "source": "kijiji",
      "url": "https://www.kijiji.ca/v-apartments-condos/ottawa/1-bed-1-bath-june-1st-golden-triangle-steps-to-elgin-street/1737852336",
      "bathrooms": 1.0
    },
    {
      "id": "kijiji-1733403462",
      "title": "NEW Downtown Ottawa Apartments | 2 Months FREE + Move-In Bonus |",
      "address": "200 Elgin Street, Ottawa, Ontario K2P 1L5, Canada",
      "lat": 45.419188,
      "lon": -75.692114,
      "rent_cad": 1850,
      "bedrooms": 0,
      "source": "kijiji",
      "url": "https://www.kijiji.ca/v-apartments-condos/ottawa/new-downtown-ottawa-apartments-2-months-free-move-in-bonus/1733403462",
      "bathrooms": 1.0
    },
    {
      "id": "kijiji-1738540478",
      "title": "Downtown 1-bed - Cooper & O'Connor ~ Move in Aug 1st!",
      "address": "335 Cooper Street, Ottawa, Ontario K2P 0G6, Canada",
      "lat": 45.417162,
      "lon": -75.694864,
      "rent_cad": 1699,
      "bedrooms": 0,
      "source": "kijiji",
      "url": "https://www.kijiji.ca/v-apartments-condos/ottawa/downtown-1-bed-cooper-oconnor-move-in-aug-1st/1738540478",
      "bathrooms": 1.0
    }
  ]
}
